City,Lat,Lng,Max Temp,Humidity,Cloudiness,Wind Speed,Country,Date
pangnirtung,66.1451,66.1451,5.43,77,0,3.51,CA,1612924237
ushuaia,-54.8,-54.8,62.6,72,0,4.61,AR,1612923745
butaritari,3.0707,3.0707,81.63,82,94,15.5,KI,1612924051
saint-francois,46.4154,46.4154,37.4,100,75,2.3,FR,1612924445
punta arenas,-53.15,-53.15,62.6,63,0,2.3,CL,1612923724
rikitea,-23.1203,-23.1203,79.41,69,52,6.31,PF,1612923744
uyuni,-20.4597,-20.4597,52.68,44,4,10.54,BO,1612924448
fortuna,40.5982,40.5982,50.0,100,90,9.22,US,1612923992
evensk,61.95,61.95,15.22,89,100,25.37,RU,1612924273
mataura,-46.1927,-46.1927,59.2,65,100,9.31,NZ,1612923996
bluff,-46.6,-46.6,53.73,87,100,21.07,NZ,1612923997
laguna,38.421,38.421,60.01,63,90,6.91,US,1612924318
elliot,-31.3333,-31.3333,60.03,89,37,1.5,ZA,1612924455
bloomington,44.8408,44.8408,5.0,55,1,9.22,US,1612924456
high level,58.5169,58.5169,-14.8,70,90,9.22,CA,1612924457
ust-omchug,61.15,61.15,5.86,90,100,12.97,RU,1612924458
new norfolk,-42.7826,-42.7826,72.0,43,0,1.99,AU,1612923877
tura,25.5198,25.5198,73.36,29,54,0.63,IN,1612924268
vranjska banja,42.555,42.555,37.99,92,20,4.36,RS,1612924462
torbay,47.6666,47.6666,30.0,86,90,29.93,CA,1612923957
luderitz,-26.6481,-26.6481,66.92,71,0,12.41,NA,1612923885
leningradskiy,69.3833,69.3833,-25.83,83,0,11.16,RU,1612924185
okhotsk,59.3833,59.3833,21.69,94,100,18.41,RU,1612924267
provideniya,64.3833,64.3833,-2.2,71,0,24.61,RU,1612924203
kapaa,22.0752,22.0752,71.6,49,75,14.97,US,1612924055
tatawin,32.9297,32.9297,59.0,25,0,3.44,TN,1612924469
yellowknife,62.456,62.456,-9.0,77,90,11.5,CA,1612924107
bredasdorp,-34.5322,-34.5322,55.4,88,87,2.3,ZA,1612924060
price,39.5994,39.5994,41.0,52,90,11.5,US,1612924062
hobart,-42.8794,-42.8794,72.0,42,20,3.44,AU,1612923885
kelo,9.3086,9.3086,65.84,23,100,4.29,TD,1612924476
pevek,69.7008,69.7008,-6.14,74,0,3.02,RU,1612924085
ponca city,36.707,36.707,19.4,86,90,11.5,US,1612924478
sakaiminato,35.55,35.55,51.8,57,40,9.22,JP,1612924479
busselton,-33.65,-33.65,66.0,54,0,7.0,AU,1612924043
vardo,70.3705,70.3705,21.25,90,100,13.0,NO,1612924401
atuona,-9.8,-9.8,79.56,74,0,17.18,PF,1612923743
pangody,65.85,65.85,-28.75,85,25,10.18,RU,1612924484
san patricio,28.017,28.017,69.01,94,90,13.8,US,1612923985
puerto ayora,-0.7393,-0.7393,78.01,91,79,4.52,EC,1612923861
ribeira grande,38.5167,38.5167,60.44,83,100,18.84,PT,1612924294
copiapo,-27.3667,-27.3667,60.8,82,0,4.61,CL,1612924488
hilo,19.7297,19.7297,71.6,68,75,14.97,US,1612924155
barrow,71.2906,71.2906,-22.0,69,1,17.27,US,1612924002
hithadhoo,-0.6,-0.6,81.97,82,63,14.32,MV,1612924090
vaini,-21.2,-21.2,78.8,89,75,24.16,TO,1612923989
san quintin,30.4833,30.4833,55.74,77,100,7.54,MX,1612924361
lashio,22.9333,22.9333,66.74,51,0,0.6,MM,1612924495
port alfred,-33.5906,-33.5906,68.0,94,0,1.01,ZA,1612923752
jamestown,42.097,42.097,17.6,79,90,8.05,US,1612923861
tucumcari,35.1717,35.1717,33.8,60,1,9.22,US,1612924498
labuhan,-6.8844,-6.8844,82.89,76,96,8.08,ID,1612924017
beringovskiy,63.05,63.05,-10.16,89,35,11.9,RU,1612924275
hasaki,35.7333,35.7333,51.01,34,75,9.22,JP,1612924250
cape town,-33.9258,-33.9258,68.0,82,0,12.66,ZA,1612924026
geraldton,-28.7667,-28.7667,71.6,60,90,24.16,AU,1612924259
iracoubo,5.4802,5.4802,77.02,80,84,10.87,GF,1612924256
souillac,-20.5167,-20.5167,77.0,83,40,1.14,MU,1612923938
kushmurun,52.4503,52.4503,-16.47,83,0,5.08,KZ,1612924508
iquique,-20.2208,-20.2208,71.6,60,0,12.66,CL,1612924390
talnakh,69.4865,69.4865,-9.78,89,99,3.06,RU,1612923819
coquimbo,-29.9533,-29.9533,60.8,88,40,6.91,CL,1612924360
duvan,55.695,55.695,-15.23,88,95,6.22,RU,1612924513
avarua,-21.2078,-21.2078,86.0,70,20,9.22,CK,1612923876
birjand,32.8663,32.8663,28.4,50,0,1.07,IR,1612924516
cidreira,-30.1811,-30.1811,74.71,80,98,18.88,BR,1612923908
maryborough,-25.5333,-25.5333,81.0,56,69,8.99,AU,1612924520
ballina,-28.8667,-28.8667,75.2,88,90,9.22,AU,1612924521
sao felix do xingu,-6.6447,-6.6447,70.77,96,100,1.05,BR,1612924522
petropavlovsk-kamchatskiy,53.0452,53.0452,30.2,74,75,13.42,RU,1612924523
san cristobal,7.7669,7.7669,68.04,87,89,2.04,VE,1612924123
nikolskoye,59.7035,59.7035,1.99,77,36,2.24,RU,1612923986
norman wells,65.282,65.282,-36.4,67,20,3.44,CA,1612924015
magadan,59.5667,59.5667,22.86,92,100,36.89,RU,1612924528
albany,42.6001,42.6001,25.0,63,0,4.0,US,1612923724
cherskiy,68.75,68.75,-3.26,86,0,2.51,RU,1612924462
sobolevo,54.4299,54.4299,-0.44,93,89,6.73,RU,1612924282
dingle,10.9995,10.9995,82.33,78,37,3.13,PH,1612924118
avera,33.194,33.194,59.0,82,90,3.44,US,1612924053
kodiak,57.79,57.79,33.8,86,90,3.44,US,1612924254
porto torres,40.835,40.835,57.2,94,0,16.11,IT,1612924539
alta floresta,-9.8756,-9.8756,75.2,94,0,4.61,BR,1612924540
kruisfontein,-34.0033,-34.0033,61.0,94,15,3.8,ZA,1612924218
clyde river,70.4692,70.4692,-2.2,84,40,9.22,CA,1612924067
klaksvik,62.2266,62.2266,30.2,69,99,5.75,FO,1612923795
khatanga,71.9667,71.9667,-13.92,84,0,7.65,RU,1612924006
saint-philippe,-21.3585,-21.3585,77.0,65,0,4.61,RE,1612924095
innisfail,-17.5333,-17.5333,82.9,83,40,5.7,AU,1612924546
ardakan,32.31,32.31,46.4,42,0,4.61,IR,1612924548
tuktoyaktuk,69.4541,69.4541,-38.2,67,20,5.75,CA,1612924191
qaanaaq,77.484,77.484,14.32,77,0,5.26,GL,1612924172
anadyr,64.75,64.75,1.4,66,0,4.47,RU,1612924551
dikson,73.5069,73.5069,-26.7,87,100,9.44,RU,1612923979
port lincoln,-34.7333,-34.7333,80.24,39,0,7.83,AU,1612924009
mayo,38.8876,38.8876,39.2,65,90,8.05,US,1612924254
mount isa,-20.7333,-20.7333,93.2,43,40,9.22,AU,1612924256
georgetown,5.4112,5.4112,84.2,74,20,5.75,MY,1612923939
cancun,21.1743,21.1743,80.01,83,40,9.22,MX,1612924400
christchurch,-43.5333,-43.5333,73.99,37,0,10.36,NZ,1612924404
turinsk,58.0458,58.0458,-22.32,86,0,5.99,RU,1612924067
coahuayana,18.7333,18.7333,67.8,85,0,2.35,MX,1612924561
thompson,55.7435,55.7435,-31.0,68,1,5.75,CA,1612924046
hamilton,39.1834,39.1834,25.0,74,90,9.22,US,1612924429
namibe,-15.1961,-15.1961,71.92,79,100,4.52,AO,1612924325
rawson,-43.3002,-43.3002,67.19,67,100,26.28,AR,1612924276
chokurdakh,70.6333,70.6333,-14.3,87,0,2.8,RU,1612923747
lata,40.1629,40.1629,55.0,90,98,1.99,PT,1612924568
san jeronimo,-11.9472,-11.9472,53.1,71,100,3.69,PE,1612924570
russell,32.3502,32.3502,60.8,94,90,2.04,US,1612924113
bengkulu,-3.8004,-3.8004,83.62,64,100,4.32,ID,1612924217
venice,27.0998,27.0998,66.99,100,75,2.66,US,1612924443
castro,-24.7911,-24.7911,57.69,91,100,6.55,BR,1612924084
zemio,5.0314,5.0314,61.2,32,73,1.92,CF,1612924576
shimoda,34.6667,34.6667,50.0,53,75,6.91,JP,1612924397
kolokani,13.5728,13.5728,73.4,20,13,12.55,ML,1612924578
port-gentil,-0.7193,-0.7193,79.88,83,100,6.87,GA,1612924579
prince george,53.9166,53.9166,-8.0,70,1,8.05,CA,1612924580
pachino,36.7186,36.7186,42.8,100,0,3.44,IT,1612924581
salalah,17.0151,17.0151,75.2,38,0,8.05,OM,1612924045
naze,28.3667,28.3667,64.4,55,75,9.22,JP,1612923727
nanortalik,60.1432,60.1432,27.27,86,0,16.37,GL,1612924585
ancud,-41.8697,-41.8697,61.0,83,0,1.03,CL,1612923961
ilulissat,69.2167,69.2167,17.6,45,0,12.66,GL,1612924110
pinhao,-25.6956,-25.6956,60.01,72,100,4.72,BR,1612924588
bethel,41.3712,41.3712,23.0,93,51,3.96,US,1612924093
arraial do cabo,-22.9661,-22.9661,74.16,85,0,5.88,BR,1612924121
bandarbeyla,9.4942,9.4942,72.68,72,99,17.05,SO,1612924206
hermanus,-34.4187,-34.4187,62.01,93,91,1.01,ZA,1612924076
kuytun,54.3419,54.3419,9.46,92,100,4.21,RU,1612924594
gorin,51.1983,51.1983,10.36,87,51,2.51,RU,1612924595
samarai,-10.6167,-10.6167,86.4,64,99,5.68,PG,1612924105
severo-kurilsk,50.6789,50.6789,27.86,89,98,9.98,RU,1612924265
hervey bay,-25.2986,-25.2986,81.0,56,19,8.99,AU,1612923783
watsa,3.0372,3.0372,63.39,44,80,0.45,CD,1612924600
ketchikan,55.3422,55.3422,17.6,53,20,6.91,US,1612924601
cap malheureux,-19.9842,-19.9842,75.99,83,15,1.99,MU,1612924328
salas,43.4118,43.4118,48.99,87,90,8.05,ES,1612924604
calabozo,8.9242,8.9242,77.56,46,93,6.91,VE,1612924605
winona,43.9666,43.9666,6.8,72,1,3.44,US,1612924606
arona,28.0996,28.0996,62.01,72,20,4.61,ES,1612924607
esperance,-33.8667,-33.8667,75.2,46,75,10.36,AU,1612924157
waipawa,-41.4122,-41.4122,69.8,56,20,25.32,NZ,1612924609
nome,64.5011,64.5011,-2.2,46,1,16.11,US,1612924240
kamaishi,39.2667,39.2667,33.8,86,75,10.36,JP,1612924606
batagay-alyta,67.8006,67.8006,-8.03,82,100,2.55,RU,1612924613
prince rupert,54.3161,54.3161,23.0,63,90,6.91,CA,1612924614
ponta do sol,32.6667,32.6667,57.99,70,71,1.01,PT,1612924086
komsomolskiy,40.4272,40.4272,42.8,81,99,6.91,UZ,1612924617
mar del plata,-38.0023,-38.0023,66.0,88,75,12.66,AR,1612924070
daru,-9.0763,-9.0763,86.43,67,100,11.1,PG,1612924452
upernavik,72.7868,72.7868,11.16,76,0,4.5,GL,1612924170
bathsheba,13.2167,13.2167,75.2,78,75,14.97,BB,1612924623
sambava,-14.2667,-14.2667,76.05,90,100,4.09,MG,1612924624
mataram,-8.5833,-8.5833,84.2,74,75,6.91,ID,1612924625
aklavik,68.2191,68.2191,-32.8,74,0,2.3,CA,1612924427
meulaboh,4.1363,4.1363,84.92,67,61,2.17,ID,1612924377
kaitangata,-46.2817,-46.2817,57.99,91,100,4.0,NZ,1612924295
longyearbyen,78.2186,78.2186,17.6,86,75,2.3,SJ,1612924012
nizwa,22.9333,22.9333,60.85,44,100,3.67,OM,1612924198
iqaluit,63.7506,63.7506,1.4,85,75,3.13,CA,1612924323
adet,11.2644,11.2644,53.2,44,10,2.77,ET,1612924633
yashkul,46.1711,46.1711,35.49,93,47,12.12,RU,1612924634
morehead,37.2711,37.2711,34.0,80,90,6.91,US,1612924635
tshikapa,-6.4167,-6.4167,71.46,89,99,1.36,CD,1612924636
la ronge,55.1001,55.1001,-20.2,69,100,6.91,CA,1612924046
rockford,42.2711,42.2711,1.4,55,40,5.82,US,1612924624
kaeo,-35.1,-35.1,71.01,92,100,1.99,NZ,1612924641
victoria,22.2855,22.2855,62.01,92,100,1.01,HK,1612924210
escanaba,45.7453,45.7453,3.0,66,1,9.22,US,1612924643
blagoyevo,63.3667,63.3667,-12.73,89,100,3.74,RU,1612924645
am timan,11.0297,11.0297,63.36,25,5,4.41,TD,1612924646
baherden,38.4362,38.4362,52.99,51,0,3.36,TM,1612924384
aksu,41.1231,41.1231,34.34,76,79,2.04,CN,1612924565
goderich,43.7501,43.7501,15.8,62,92,5.75,CA,1612924326
jensen beach,27.2545,27.2545,73.4,83,1,6.91,US,1612924441
leninskoye,41.7589,41.7589,44.6,93,100,2.3,KZ,1612924651
lincoln,40.8,40.8,7.0,56,1,4.61,US,1612924497
virginia beach,36.8529,36.8529,48.2,87,75,11.5,US,1612924646
bambous virieux,-20.3428,-20.3428,77.0,83,40,1.14,MU,1612924228
kavieng,-2.5744,-2.5744,83.35,77,98,7.23,PG,1612924349
elko,41.0002,41.0002,42.8,45,90,4.61,US,1612924617
harper,4.375,4.375,79.02,89,100,4.72,LR,1612924087
narsaq,60.9167,60.9167,33.8,27,9,31.07,GL,1612924257
simpang,-1.2667,-1.2667,85.59,69,88,5.97,ID,1612924660
asilah,35.465,35.465,60.8,88,75,14.97,MA,1612924661
yelizovo,53.1873,53.1873,30.2,74,75,13.42,RU,1612924662
lebu,-37.6167,-37.6167,60.66,84,0,12.21,CL,1612924193
lavrentiya,65.5833,65.5833,-13.81,78,0,14.41,RU,1612924665
paamiut,61.994,61.994,28.9,85,100,11.36,GL,1612924426
vao,-22.6667,-22.6667,78.31,79,15,9.71,NC,1612924165
novospasskoye,53.1468,53.1468,1.98,92,100,12.82,RU,1612924668
corinth,37.9407,37.9407,51.01,67,38,1.99,GR,1612924662
cabedelo,-6.9811,-6.9811,78.8,89,20,5.75,BR,1612924670
san policarpo,12.1791,12.1791,79.29,75,100,16.02,PH,1612924189
tiksi,71.6872,71.6872,-13.68,82,100,4.05,RU,1612924199
novobessergenevka,47.1847,47.1847,35.01,93,32,8.99,RU,1612924674
shancheng,34.7953,34.7953,55.0,48,100,4.0,CN,1612924676
houston,29.7633,29.7633,66.0,88,90,10.36,US,1612924453
isiro,2.7739,2.7739,63.39,45,89,1.45,CD,1612924679
krasne,49.9145,49.9145,24.8,93,75,6.71,UA,1612924680
abrau-dyurso,44.69,44.69,51.8,82,95,11.18,RU,1612924682
manta,-0.95,-0.95,77.0,88,20,3.44,EC,1612924683
puri,19.8,19.8,66.2,77,1,5.91,IN,1612924684
nieuw amsterdam,5.8833,5.8833,75.99,86,8,9.01,SR,1612924685
sao filipe,14.8961,14.8961,69.94,77,23,8.01,CV,1612924183
ostrovnoy,68.0531,68.0531,9.36,94,100,17.81,RU,1612924290
port elizabeth,-33.918,-33.918,64.4,94,0,3.44,ZA,1612924148
boone,39.0334,39.0334,14.0,79,100,3.0,US,1612924500
saldanha,-33.0117,-33.0117,62.6,82,0,6.91,ZA,1612924398
lazaro cardenas,17.9583,17.9583,72.73,79,13,4.45,MX,1612924451
jumla,29.2747,29.2747,50.05,45,100,5.3,NP,1612924694
tasiilaq,65.6145,65.6145,14.0,62,75,3.76,GL,1612924545
san ramon,37.7799,37.7799,55.99,67,75,8.05,US,1612924425
saint george,37.1041,37.1041,57.99,24,20,2.68,US,1612923959
palmer,42.1584,42.1584,23.0,93,75,2.82,US,1612924700
chapada dos guimaraes,-15.4606,-15.4606,84.2,54,0,4.61,BR,1612924701
cangucu,-31.395,-31.395,68.0,91,7,7.2,BR,1612924703
anloga,5.7947,5.7947,82.4,83,40,10.36,GH,1612924704
mount gambier,-37.8333,-37.8333,87.8,22,0,5.75,AU,1612924705
traralgon,-38.1833,-38.1833,75.99,59,0,5.01,AU,1612924706
fort nelson,58.8053,58.8053,-11.2,64,90,8.05,CA,1612924708
menongue,-14.6585,-14.6585,63.79,90,100,6.22,AO,1612924709
kugulta,45.3636,45.3636,41.0,87,0,6.71,RU,1612924710
dawson creek,55.7666,55.7666,-22.0,63,1,5.75,CA,1612924711
dongning,44.0622,44.0622,25.75,91,53,3.85,CN,1612924712
awjilah,29.1081,29.1081,55.96,35,51,6.38,LY,1612924713
arman,59.7,59.7,21.83,89,100,22.75,RU,1612924714
san antonio,29.4241,29.4241,59.0,88,1,10.36,US,1612924512
katsuura,35.1333,35.1333,51.8,43,40,11.5,JP,1612924717
chuy,-33.6971,-33.6971,66.69,88,0,5.28,UY,1612924197
monrovia,6.3005,6.3005,79.7,87,100,6.22,LR,1612924621
tautira,-17.7333,-17.7333,84.2,61,75,14.97,PF,1612924160
tari,12.4086,12.4086,67.32,21,4,8.03,NG,1612924721
carutapera,-1.195,-1.195,79.2,80,100,4.63,BR,1612924293
atkarsk,51.8718,51.8718,6.21,94,100,12.62,RU,1612924723
altay,47.8667,47.8667,5.5,83,30,0.94,CN,1612924724
taoudenni,22.6783,22.6783,62.96,26,0,8.93,ML,1612924187
codrington,-38.2667,-38.2667,82.44,35,0,4.09,AU,1612924199
saskylakh,71.9167,71.9167,-25.22,82,0,8.9,RU,1612924529
goedereede,51.8175,51.8175,24.01,87,43,15.73,NL,1612924729
metro,-5.1131,-5.1131,83.05,78,96,7.25,ID,1612924730
zhuhai,22.2769,22.2769,59.0,94,75,21.85,CN,1612924731
namatanai,-3.6667,-3.6667,84.6,72,99,5.64,PG,1612924732
port hawkesbury,45.6169,45.6169,21.0,67,20,9.22,CA,1612924734
pandan,14.0453,14.0453,75.67,91,100,14.63,PH,1612924593
san vicente,-26.6167,-26.6167,62.35,79,100,1.97,AR,1612924737
santa fe,-31.6333,-31.6333,73.0,71,73,3.0,AR,1612924439
anori,-3.7728,-3.7728,75.09,98,100,1.97,BR,1612924739
broken hill,-31.95,-31.95,91.4,18,0,5.75,AU,1612924740
tubuala,9.5167,9.5167,80.6,65,20,11.5,PA,1612924741
mocuba,-16.8392,-16.8392,72.88,98,100,3.04,MZ,1612924742
fare,-16.7,-16.7,81.66,72,0,14.0,PF,1612924624
basoko,1.2391,1.2391,71.08,47,86,1.45,CD,1612924746
rundu,-17.9333,-17.9333,67.96,93,100,9.75,NA,1612924747
airai,-8.9266,-8.9266,71.73,82,100,4.12,TL,1612924281
lorengau,-2.0226,-2.0226,84.61,75,98,6.13,PG,1612924434
acari,-15.4311,-15.4311,72.82,75,95,2.26,PE,1612924750
payakumbuh,-0.2202,-0.2202,83.16,61,95,0.67,ID,1612924751
batagay,67.6333,67.6333,-18.8,83,0,0.18,RU,1612924753
manzanillo,20.3433,20.3433,73.89,77,27,7.05,CU,1612924755
carnarvon,-24.8667,-24.8667,78.8,73,0,25.32,AU,1612924756
kashi,39.4547,39.4547,48.2,23,20,8.95,CN,1612924757
tsiroanomandidy,-18.7667,-18.7667,66.9,95,100,4.12,MG,1612924570
mahebourg,-20.4081,-20.4081,77.0,83,40,1.14,MU,1612924759
te anau,-45.4167,-45.4167,54.55,80,100,7.11,NZ,1612924760
alofi,-19.0595,-19.0595,86.0,74,75,11.5,NU,1612924430
sabzevar,36.2126,36.2126,46.94,55,25,3.74,IR,1612924764
comodoro rivadavia,-45.8667,-45.8667,64.4,88,0,3.8,AR,1612924556
umm kaddadah,13.6017,13.6017,63.16,36,68,14.25,SD,1612924766
suleja,9.1758,9.1758,75.51,21,67,3.53,NG,1612924767
anjozorobe,-18.4,-18.4,64.4,94,75,4.61,MG,1612924768
kenai,60.5544,60.5544,9.0,85,90,10.36,US,1612924769
yar-sale,66.8333,66.8333,-20.51,85,93,13.96,RU,1612924770
rock sound,24.9,24.9,75.24,82,7,11.54,BS,1612924772
sonepur,20.8333,20.8333,68.58,25,0,2.37,IN,1612924773
athabasca,54.7169,54.7169,-16.6,63,100,11.5,CA,1612924775
general cepeda,25.3833,25.3833,64.4,42,1,11.5,MX,1612924776
tambura,5.6,5.6,65.61,30,97,4.03,SS,1612924777
adrar,20.5022,20.5022,60.4,28,80,8.1,MR,1612924510
kieta,-6.2167,-6.2167,84.11,77,51,9.19,PG,1612924631
isangel,-19.55,-19.55,84.2,74,75,9.22,VU,1612924780
hukuntsi,-24.0,-24.0,70.11,77,100,7.31,BW,1612924782
grand gaube,-20.0064,-20.0064,75.99,83,38,1.99,MU,1612924348
kirakira,-10.4544,-10.4544,85.73,70,33,6.6,SB,1612924588
artyshta,54.1222,54.1222,-0.8,92,100,12.77,RU,1612924786
babusnica,43.0597,43.0597,48.99,100,23,3.76,RS,1612924787
ugoofaaru,5.6667,5.6667,82.18,69,81,11.65,MV,1612924386
zhigansk,66.7697,66.7697,-21.19,85,8,3.56,RU,1612924789
muros,42.7762,42.7762,46.0,92,68,7.0,ES,1612924246
sitka,57.0531,57.0531,14.0,41,40,11.5,US,1612924792
keskin,39.6731,39.6731,45.0,67,30,7.09,TR,1612924793
valparaiso,-33.0393,-33.0393,60.8,100,90,2.3,CL,1612924794
kyra,49.5776,49.5776,18.75,88,100,3.02,RU,1612924795
nishihara,26.1842,26.1842,68.0,49,75,13.8,JP,1612924535
kamenka,51.3223,51.3223,12.99,90,93,6.82,RU,1612924603
buala,-8.145,-8.145,79.57,87,100,12.24,SB,1612924341
tyukhtet,56.5389,56.5389,-1.46,90,100,10.89,RU,1612924802
itaituba,-4.2761,-4.2761,75.02,97,100,1.99,BR,1612924804
constitucion,-35.3333,-35.3333,60.22,88,0,1.28,CL,1612924805
hambantota,6.1241,6.1241,73.4,88,75,8.05,LK,1612924192
cairns,-16.9167,-16.9167,87.8,66,75,5.75,AU,1612924588
ataco,3.5915,3.5915,75.81,74,99,3.8,CO,1612924809
labelle,26.7617,26.7617,69.01,88,40,4.63,US,1612924810
santa maria,-29.6842,-29.6842,66.2,100,20,4.61,BR,1612924211
brumadinho,-20.1433,-20.1433,68.0,83,0,4.61,BR,1612924812
san isidro,-12.1167,-12.1167,75.0,78,0,9.22,PE,1612924813
umkomaas,-30.2067,-30.2067,75.99,96,100,3.29,ZA,1612924577
picota,-6.9197,-6.9197,75.76,88,98,1.81,PE,1612924815
port hardy,50.6996,50.6996,33.8,75,90,5.75,CA,1612924817
jalu,29.0331,29.0331,55.45,35,40,6.13,LY,1612924818
hayden,47.766,47.766,24.8,50,75,3.78,US,1612924819
osorio,-29.8867,-29.8867,69.01,88,100,8.79,BR,1612924822
havre-saint-pierre,50.2334,50.2334,5.0,66,1,11.5,CA,1612924591
zhanaozen,43.3,43.3,35.82,84,45,10.4,KZ,1612924824
revda,56.801,56.801,-14.8,76,40,13.42,RU,1612924826
rio gallegos,-51.6226,-51.6226,59.0,77,0,4.61,AR,1612924296
coro,11.4045,11.4045,73.36,83,17,12.64,VE,1612924829
yakima,46.4665,46.4665,30.2,47,1,5.75,US,1612924830
pondicherry,11.93,11.93,72.93,72,0,9.55,IN,1612924831
belyy yar,53.6039,53.6039,6.8,56,0,8.95,RU,1612924832
iisalmi,63.5592,63.5592,3.2,85,90,3.44,FI,1612924834
borodino,55.9106,55.9106,4.82,89,79,10.85,RU,1612924835
loukhi,66.0764,66.0764,1.04,93,100,3.11,RU,1612924837
maceio,-9.6658,-9.6658,73.4,94,0,4.61,BR,1612924332
jaciara,-15.9653,-15.9653,73.96,66,83,0.96,BR,1612924839
caravelas,-17.7125,-17.7125,73.69,87,100,3.98,BR,1612924367
karratha,-20.7377,-20.7377,94.59,31,0,13.62,AU,1612924673
durban,-29.8579,-29.8579,75.99,94,75,1.14,ZA,1612924844
oussouye,12.485,12.485,70.79,29,76,7.49,SN,1612924845
berlevag,70.8578,70.8578,21.83,89,100,17.69,NO,1612924846
hualmay,-11.0964,-11.0964,70.81,82,69,4.74,PE,1612924847
maniitsoq,65.4167,65.4167,19.94,84,0,5.91,GL,1612924848
nedryhayliv,50.834,50.834,16.0,96,100,2.17,UA,1612924849
katobu,-4.9408,-4.9408,88.5,56,66,6.76,ID,1612924851
villeneuve-sur-lot,44.5,44.5,44.01,100,90,4.61,FR,1612924852
nizhniy tsasuchey,50.5167,50.5167,19.8,89,100,10.29,RU,1612924853
los llanos de aridane,28.6585,28.6585,62.6,67,0,6.91,ES,1612924382
yulara,-25.2406,-25.2406,93.2,38,40,14.97,AU,1612924856
havoysund,70.9963,70.9963,21.2,86,100,18.41,NO,1612924609
luwingu,-10.2621,-10.2621,62.4,96,100,3.4,ZM,1612924858
port hedland,-20.3167,-20.3167,87.8,62,77,9.22,AU,1612924859
ganzhou,28.8184,28.8184,52.07,89,100,2.55,CN,1612924862
rapid valley,44.0625,44.0625,-4.0,77,90,3.44,US,1612924863
yatou,37.15,37.15,46.35,55,47,9.48,CN,1612924864
asau,46.4333,46.4333,41.0,100,91,6.91,RO,1612924865
zyryanka,65.75,65.75,-11.2,88,19,10.63,RU,1612924866
jaguarao,-32.5661,-32.5661,68.16,90,14,6.85,BR,1612924584
ahipara,-35.1667,-35.1667,66.11,92,100,8.57,NZ,1612924275
port blair,11.6667,11.6667,80.17,57,47,12.86,IN,1612924271
sungairaya,0.7,0.7,85.55,65,99,5.55,ID,1612924871
cabo san lucas,22.8909,22.8909,68.0,82,1,14.97,MX,1612924304
umm lajj,25.0213,25.0213,74.23,52,0,1.88,SA,1612924873
ajdabiya,30.7554,30.7554,59.16,34,0,7.0,LY,1612924874
lagoa,39.05,39.05,59.02,85,100,14.41,PT,1612924580
east wenatchee,47.4157,47.4157,26.6,46,1,4.61,US,1612924876
belaya gora,68.5333,68.5333,-16.01,88,20,4.25,RU,1612924633
pacific grove,36.6177,36.6177,54.0,82,90,4.61,US,1612924559
ekhabi,53.5102,53.5102,15.73,96,100,27.18,RU,1612924880
blackwater,-23.5833,-23.5833,86.56,42,17,9.35,AU,1612924881
plyussa,58.4308,58.4308,4.6,94,97,5.17,RU,1612924882
qaqortoq,60.7167,60.7167,33.8,27,4,31.07,GL,1612924884
saint-augustin,51.226,51.226,17.62,97,100,10.63,CA,1612924886
dali,25.7,25.7,53.51,57,0,0.22,CN,1612924887
moquegua,-17.1956,-17.1956,65.1,75,48,1.32,PE,1612924888
broome,42.2506,42.2506,19.4,86,90,6.91,US,1612924602
atar,20.5169,20.5169,61.97,29,56,9.08,MR,1612924357
lompoc,34.6391,34.6391,51.8,82,75,5.75,US,1612924865
praia da vitoria,38.7333,38.7333,59.0,94,75,7.45,PT,1612924893
sibolga,1.7427,1.7427,85.86,63,73,2.73,ID,1612924895
margate,51.3813,51.3813,33.01,55,100,3.0,GB,1612924896
ergani,38.2653,38.2653,39.2,93,0,4.61,TR,1612924897
east london,-33.0153,-33.0153,69.66,83,0,3.49,ZA,1612924898
shelburne,44.0787,44.0787,14.0,85,20,2.3,CA,1612924899
tecoanapa,16.5167,16.5167,76.14,78,0,4.79,MX,1612924900
tateyama,34.9833,34.9833,51.8,43,40,11.5,JP,1612924901
straumen,63.8709,63.8709,23.0,74,75,3.44,NO,1612924902
elat,29.5581,29.5581,60.8,63,0,4.94,IL,1612924816
pilar,-9.5972,-9.5972,73.4,94,0,4.61,BR,1612924905
soe,-9.8607,-9.8607,79.77,69,100,6.06,ID,1612924908
ferme-neuve,46.7001,46.7001,10.4,85,99,2.77,CA,1612924514
tuatapere,-46.1333,-46.1333,51.78,91,100,13.76,NZ,1612924910
fairbanks,64.8378,64.8378,-14.8,64,1,4.92,US,1612924710
auki,-8.7676,-8.7676,79.74,85,67,11.16,SB,1612924586
valley,45.1277,45.1277,17.6,67,1,2.73,US,1612924914
saint-pierre,-21.3393,-21.3393,78.8,61,0,3.44,RE,1612924915
longuenesse,50.734,50.734,25.0,85,100,8.99,FR,1612924916
matamoros,25.5333,25.5333,77.0,11,1,6.04,MX,1612924918
half moon bay,37.4636,37.4636,55.4,93,90,5.28,US,1612924919
faanui,-16.4833,-16.4833,82.0,73,0,13.69,PF,1612924921
belgaum,15.8667,15.8667,53.6,62,0,4.7,IN,1612924922
creel,27.75,27.75,40.73,60,20,4.36,MX,1612924923
boddam,57.4667,57.4667,33.01,93,75,4.61,GB,1612924924
lesnoy,57.6198,57.6198,-23.19,86,3,5.21,RU,1612924925
kvarkeno,52.0833,52.0833,-7.38,84,72,3.44,RU,1612924926
grindavik,63.8424,63.8424,32.0,100,75,8.05,IS,1612924927
sungai besar,3.6746,3.6746,82.4,89,20,3.44,MY,1612924872
moron,-34.6534,-34.6534,68.0,84,27,5.99,AR,1612924930
analipsis,35.3167,35.3167,60.01,72,20,12.66,GR,1612924931
canavieiras,-15.675,-15.675,73.72,81,90,3.36,BR,1612924870
areosa,41.7178,41.7178,53.6,87,75,8.05,PT,1612924934
ulaanbaatar,47.9077,47.9077,6.8,72,75,2.24,MN,1612924935
marsh harbour,26.5412,26.5412,74.48,84,5,5.73,BS,1612924418
zhangjiakou,40.81,40.81,34.39,69,0,1.32,CN,1612924938
srednekolymsk,67.45,67.45,-3.5,89,1,7.61,RU,1612924939
mujiayingzi,42.1167,42.1167,29.08,90,0,6.62,CN,1612924940
arifwala,30.294,30.294,55.47,40,0,6.64,PK,1612924941
koosa,58.5255,58.5255,1.99,85,78,6.91,EE,1612924942
kholodnyy,62.7167,62.7167,12.13,92,100,9.15,RU,1612924943
krasnoselkup,65.7,65.7,-16.26,88,100,13.15,RU,1612924944
erenhot,43.6475,43.6475,23.92,91,0,8.25,CN,1612924946
puro,12.4841,12.4841,81.12,79,86,11.9,PH,1612924947
inirida,3.8653,3.8653,75.02,92,100,1.59,CO,1612924948
gerash,27.6652,27.6652,46.4,57,0,1.23,IR,1612924949
sidi ali,36.0998,36.0998,53.46,91,84,12.21,DZ,1612924950
todos santos,23.45,23.45,64.99,81,0,1.99,MX,1612924951
hay river,60.8156,60.8156,-16.6,69,100,16.11,CA,1612924952
aswan,24.0934,24.0934,63.21,47,54,9.15,EG,1612924953
bahadurganj,26.2667,26.2667,65.46,46,98,2.17,IN,1612924955
boditi,6.9667,6.9667,52.72,80,82,9.19,ET,1612924956
mendi,-6.1761,-6.1761,65.12,92,100,3.51,PG,1612924957
puerto leguizamo,-0.1934,-0.1934,78.1,74,97,3.0,CO,1612924958
paso de carrasco,-34.8603,-34.8603,69.8,78,90,16.11,UY,1612924960
sao geraldo do araguaia,-6.4006,-6.4006,72.21,95,100,1.03,BR,1612924963
guatire,10.4762,10.4762,78.8,89,40,1.39,VE,1612924964
nouadhibou,20.931,20.931,60.8,82,0,17.27,MR,1612924881
burgeo,47.6167,47.6167,22.59,90,0,26.82,CA,1612924966
gazanjyk,39.2446,39.2446,48.85,64,0,3.18,TM,1612924967
dunedin,-45.8742,-45.8742,57.99,69,85,1.99,NZ,1612924968
maarianhamina,60.0973,60.0973,-7.6,84,0,2.3,AX,1612924891
saint anthony,45.0205,45.0205,3.2,55,1,9.22,US,1612924972
richards bay,-28.783,-28.783,73.51,90,48,1.92,ZA,1612924973
okoneshnikovo,54.8377,54.8377,-15.68,89,98,8.14,RU,1612924974
tulsipur,28.131,28.131,71.01,90,100,1.99,NP,1612924976
acapulco,16.8634,16.8634,78.8,78,1,4.61,MX,1612924977
seddon,-37.8068,-37.8068,89.01,39,0,12.66,AU,1612924978
adre,13.4667,13.4667,59.63,33,30,13.31,TD,1612924381
bharatpur,27.2167,27.2167,62.53,48,99,3.62,IN,1612924981
road town,18.4167,18.4167,78.8,73,20,14.97,VG,1612924767
yumen,40.2833,40.2833,39.87,56,100,20.89,CN,1612924984
portland,45.5234,45.5234,39.99,60,20,5.75,US,1612924353
roebourne,-20.7833,-20.7833,95.18,31,16,14.38,AU,1612924986
hyeres,43.1167,43.1167,57.2,82,75,14.97,FR,1612924987
berdigestyakh,62.0989,62.0989,-11.22,88,5,5.86,RU,1612924988
vanimo,-2.6741,-2.6741,85.48,66,89,6.35,PG,1612924990
sur,22.5667,22.5667,70.54,69,100,8.99,OM,1612924991
marzuq,14.4,14.4,51.33,68,50,3.27,YE,1612924993
havelock,34.8791,34.8791,55.4,100,40,4.61,US,1612924994
campbell river,50.0163,50.0163,30.99,86,40,1.83,CA,1612924962
bubaque,11.2833,11.2833,76.87,66,36,15.08,GW,1612924533
napier,-39.4833,-39.4833,77.0,60,100,4.0,NZ,1612924998
chulman,56.8479,56.8479,8.22,92,6,3.36,RU,1612924999
tumen,42.9661,42.9661,33.24,81,30,6.24,CN,1612925000
kulashi,42.2044,42.2044,46.4,81,0,8.05,GE,1612925001
palatka,29.6486,29.6486,64.99,92,82,2.44,US,1612925002
hofn,64.2539,64.2539,30.52,98,100,9.51,IS,1612925003
rila,42.1333,42.1333,44.01,87,17,8.01,BG,1612925004
tulare,36.2666,36.2666,55.0,61,97,1.01,US,1612924997
zatoka,46.0725,46.0725,46.4,100,40,11.18,UA,1612925008
north platte,41.1239,41.1239,6.8,72,90,11.5,US,1612925009
haines junction,60.7522,60.7522,-29.2,68,29,1.57,CA,1612924473
chapais,49.7834,49.7834,-0.4,85,90,4.61,CA,1612924544
poum,-20.2333,-20.2333,80.08,75,3,15.28,NC,1612925012
malpe,13.35,13.35,73.4,64,0,6.91,IN,1612925013
viedma,-40.8135,-40.8135,64.0,78,13,1.01,AR,1612925014
bulnes,-36.7423,-36.7423,71.6,68,0,3.44,CL,1612925016
qunduz,36.729,36.729,49.46,72,35,0.85,AF,1612925017
mareeba,-17.0,-17.0,87.8,62,40,6.91,AU,1612925018
domoni,-12.2569,-12.2569,80.62,80,91,10.92,KM,1612925019
lamu,-2.2717,-2.2717,78.8,83,40,7.7,KE,1612925020
kedzierzyn-kozle,50.3498,50.3498,21.0,92,95,2.53,PL,1612925021
colares,38.7992,38.7992,57.0,91,100,17.58,PT,1612924646
colac,-38.3333,-38.3333,77.0,61,0,2.17,AU,1612925023
murgab,37.4966,37.4966,48.2,66,75,6.91,TM,1612924624
canala,-21.5333,-21.5333,84.2,65,20,13.8,NC,1612925026
ovsyanka,55.9575,55.9575,5.0,51,0,6.71,RU,1612925027
alenquer,-1.9417,-1.9417,77.0,94,75,5.75,BR,1612925028
khani,41.9563,41.9563,46.4,81,0,8.05,GE,1612925029
veraval,20.9,20.9,69.33,44,100,10.04,IN,1612924809
kelvington,52.1667,52.1667,-18.4,69,100,8.05,CA,1612925031
wanning,18.8003,18.8003,63.43,92,100,11.16,CN,1612925032
hope,33.6671,33.6671,44.01,77,100,1.99,US,1612924929
matagami,49.7502,49.7502,-11.2,92,1,2.3,CA,1612925035
urucui,-7.2294,-7.2294,73.0,92,64,2.37,BR,1612925036
marystown,47.1666,47.1666,26.2,92,2,27.98,CA,1612925037
kabinda,-6.1333,-6.1333,66.78,97,100,3.22,CD,1612925038
ambon,-3.6954,-3.6954,91.4,62,20,6.91,ID,1612925039
kungurtug,50.5994,50.5994,19.24,93,100,3.53,RU,1612925040
petropavlovka,50.6114,50.6114,19.53,91,100,1.21,RU,1612925041
senanga,-16.1167,-16.1167,67.41,96,100,6.91,ZM,1612925043
marondera,-18.1853,-18.1853,56.23,94,100,4.63,ZW,1612924956
sandpoint,48.2766,48.2766,19.4,53,90,4.61,US,1612924953
mandurah,-32.55,-32.55,69.01,65,32,5.99,AU,1612925046
phibun mangsahan,15.2447,15.2447,78.01,78,40,8.05,TH,1612925047
faya,18.3851,18.3851,44.6,87,0,3.76,SA,1612925048
mus,39.0,39.0,25.29,98,19,3.31,TR,1612925049
igurusi,-8.85,-8.85,63.61,86,100,1.19,TZ,1612925052
rudnyy,52.9594,52.9594,-18.4,69,0,4.47,KZ,1612925053
sakakah,29.9697,29.9697,51.8,71,0,4.61,SA,1612925054
dumai,1.6833,1.6833,83.8,76,100,3.27,ID,1612925055
ferkessedougou,9.6,9.6,73.81,21,0,4.45,CI,1612925056
kyabe,9.4515,9.4515,65.71,24,76,5.46,TD,1612925057
antalaha,-14.9003,-14.9003,74.91,92,100,4.23,MG,1612924862
susanville,40.4163,40.4163,46.4,61,90,6.91,US,1612924995
porto novo,6.4965,6.4965,84.2,84,40,13.8,BJ,1612925061
velsk,61.0701,61.0701,-12.69,89,5,2.13,RU,1612925062
cascais,38.6979,38.6979,57.0,91,100,18.19,PT,1612925063
coihaique,-45.5752,-45.5752,68.0,56,0,3.44,CL,1612925064
garowe,8.4054,8.4054,61.63,70,92,6.98,SO,1612925065
conakry,9.538,9.538,78.37,79,17,7.34,GN,1612925066
tignere,7.3667,7.3667,63.12,25,72,2.01,CM,1612925070
baoqing,46.3317,46.3317,17.83,91,12,3.62,CN,1612925071
flin flon,54.7682,54.7682,-13.43,89,100,5.86,CA,1612924567
tucuma,-0.1833,-0.1833,76.68,92,100,6.69,BR,1612925073
yayva,59.3303,59.3303,-29.99,75,96,3.27,RU,1612925074
ostersund,63.1792,63.1792,12.2,92,90,3.44,SE,1612925070
mananjary,-21.2167,-21.2167,76.77,85,100,1.1,MG,1612925077
harnosand,62.6323,62.6323,19.0,92,40,10.36,SE,1612925078
kapit,2.0167,2.0167,89.4,60,97,1.25,MY,1612925080
takoradi,4.8845,4.8845,79.47,87,53,6.49,GH,1612925081
ternate,0.8,0.8,84.97,68,34,4.05,ID,1612925082
buchanan,5.8808,5.8808,79.21,86,100,5.99,LR,1612925083
mokhotlong,-29.2894,-29.2894,54.54,77,100,2.19,LS,1612925084
murwara,23.85,23.85,65.17,34,5,2.44,IN,1612925086
corning,42.1428,42.1428,26.6,68,90,4.61,US,1612925087
sehithwa,-20.4667,-20.4667,67.5,94,100,4.0,BW,1612925088
severodvinsk,64.5635,64.5635,-9.4,77,75,3.89,RU,1612925061
tigre,-34.426,-34.426,68.0,94,90,8.05,AR,1612924874
kalianget,-7.05,-7.05,83.07,76,72,5.12,ID,1612925091
kabare,-2.4683,-2.4683,61.25,78,100,1.66,CD,1612925092
novoukrayinka,48.3264,48.3264,33.35,93,100,12.77,UA,1612925093
tabuk,17.4189,17.4189,71.31,89,100,4.7,PH,1612925095
barcelos,41.5388,41.5388,53.6,87,75,8.05,PT,1612925020
wanaka,-44.7,-44.7,62.01,58,75,5.99,NZ,1612924826
roswell,34.0232,34.0232,52.0,87,1,3.44,US,1612925015
aksarka,66.5606,66.5606,-22.22,85,86,3.33,RU,1612925099
chino valley,34.7575,34.7575,46.99,40,100,1.99,US,1612925100
sao joao da barra,-21.6403,-21.6403,73.69,86,81,6.89,BR,1612925102
gorontalo,0.5412,0.5412,89.53,58,40,3.33,ID,1612925105
mombaca,-5.7431,-5.7431,71.82,91,97,1.81,BR,1612925106
baculin,7.4525,7.4525,81.75,82,70,5.23,PH,1612925107
bireun,5.203,5.203,82.47,73,32,1.07,ID,1612925108
mitchell,43.7094,43.7094,3.2,55,1,3.44,US,1612925110
taxisco,14.0708,14.0708,82.4,78,75,3.27,GT,1612925111
